{
    "sports": {
        "Basketball": {
            "id": "Basketball",
            "name": "Basketball it up!",
            "location": "Middle school",
            "address": "123 Main St"
        },
        "Poll": {
            "placeholder": "placeholder"
        },
        "Volleyball": {
            "id": "Volleyball",
            "name": "Volleyballin",
            "location": "High school",
            "address": "321 Main St"
        },
        "Soccer": {
            "id": "Soccer",
            "name": "Soccer Friday!",
            "location": "Middle school",
            "address": "123 Main St"
        }
    },
    "poll": {
        "Soccer": {
            "id": "Soccer",
            "name": "Soccer Y'all",
            "location": "High school",
            "address": "321 Main St"
        },
        "Ultimate Frisbee": {
            "id": "Ultimate Frisbee",
            "name": "Circle in Air Game",
            "location": "Middle school",
            "address": "123 Main St"
        },
        "Football": {
            "id": "Football",
            "name": "The 'Ol Pigskin",
            "location": "High school",
            "address": "321 Main St"
        },
        "Kickball": {
            "id": "Kickball",
            "name": "Kick the Ball Really Far Game",
            "location": "Middle school",
            "address": "123 Main St"
        },
        "Volleyball": {
            "id": "Volleyball",
            "name": "Volleyballin",
            "location": "High school",
            "address": "321 Main St"
        },
        "Basketball": {
            "id": "Basketball",
            "name": "Basketball it up!",
            "location": "Middle school",
            "address": "123 Main St"
        },
        "Wiffle Ball": {
            "id": "Wiffle Ball",
            "name": "Wiffle Ballers",
            "location": "High school",
            "address": "321 Main St"
        }
    },
    "addresses": {
        "Soccer": [
            "321 Main St.",
            "123 2nd St."
        ],
        "Basketball": [
            "456 3rd St."
        ],
        "Football": [
            "789 5th St."
        ]
    }
}